[
  {
    "id": "20260217-1800-paulete-lindacelva",
    "title": "Paulete Lindacelva (PE)",
    "date": "2026-02-17",
    "time": "18:00",
    "location": "Cais da Alfândega",
    "artist": "Paulete Lindacelva",
    "state": "PE",
    "url": ""
  },
  {
    "id": "20260217-1920-lofihouseboy",
    "title": "LOFIHOUSEBOY (PA)",
    "date": "2026-02-17",
    "time": "19:20",
    "location": "Cais da Alfândega",
    "artist": "LOFIHOUSEBOY",
    "state": "PA",
    "url": ""
  },
  {
    "id": "20260217-2040-davs",
    "title": "DAVS (PE)",
    "date": "2026-02-17",
    "time": "20:40",
    "location": "Cais da Alfândega",
    "artist": "DAVS",
    "state": "PE",
    "url": ""
  },
  {
    "id": "20260217-2200-piolinda-marcela",
    "title": "Piolinda Marcela (Colômbia)",
    "date": "2026-02-17",
    "time": "22:00",
    "location": "Cais da Alfândega",
    "artist": "Piolinda Marcela",
    "state": "Colômbia",
    "url": ""
  },
  {
    "id": "20260217-2310-sphynx",
    "title": "SPHYNX (SP)",
    "date": "2026-02-17",
    "time": "23:10",
    "location": "Cais da Alfândega",
    "artist": "SPHYNX",
    "state": "SP",
    "url": ""
  },
  {
    "id": "20260217-0020-carlos-do-complexo",
    "title": "Carlos do Complexo (RJ)",
    "date": "2026-02-17",
    "time": "00:20",
    "location": "Cais da Alfândega",
    "artist": "Carlos do Complexo",
    "state": "RJ",
    "url": ""
  },
  {
    "id": "20260217-1900-afrobitch",
    "title": "Afrobitch (PE)",
    "date": "2026-02-17",
    "time": "19:00",
    "location": "Cais da Alfândega",
    "artist": "Afrobitch",
    "state": "PE",
    "url": ""
  },
  {
    "id": "20260217-1930-chico-chico",
    "title": "Chico Chico (RJ)",
    "date": "2026-02-17",
    "time": "19:30",
    "location": "Cais da Alfândega",
    "artist": "Chico Chico",
    "state": "RJ",
    "url": ""
  },
  {
    "id": "20260217-2040-momi-maiga-quartet",
    "title": "Momi Maiga Quartet (Senegal)",
    "date": "2026-02-17",
    "time": "20:40",
    "location": "Cais da Alfândega",
    "artist": "Momi Maiga Quartet",
    "state": "Senegal",
    "url": ""
  },
  {
    "id": "20260217-2150-josyara",
    "title": "Josyara (BA)",
    "date": "2026-02-17",
    "time": "21:50",
    "location": "Cais da Alfândega",
    "artist": "Josyara",
    "state": "BA",
    "url": ""
  },
  {
    "id": "20260217-2310-faizal-mostrixx",
    "title": "FAIZAL MOSTRIXX (Uganda)",
    "date": "2026-02-17",
    "time": "23:10",
    "location": "Cais da Alfândega",
    "artist": "FAIZAL MOSTRIXX",
    "state": "Uganda",
    "url": ""
  },
  {
    "id": "20260217-0030-ajulliacosta",
    "title": "AJULLIACOSTA (SP)",
    "date": "2026-02-17",
    "time": "00:30",
    "location": "Cais da Alfândega",
    "artist": "AJULLIACOSTA",
    "state": "SP",
    "url": ""
  },
  {
    "id": "20260217-1900-zoe-beats",
    "title": "Zoe Beats (PE)",
    "date": "2026-02-17",
    "time": "19:00",
    "location": "Cais da Alfândega",
    "artist": "Zoe Beats",
    "state": "PE",
    "url": ""
  },
  {
    "id": "20260217-1930-barbarize",
    "title": "Barbarize (PE)",
    "date": "2026-02-17",
    "time": "19:30",
    "location": "Cais da Alfândega",
    "artist": "Barbarize",
    "state": "PE",
    "url": ""
  },
  {
    "id": "20260217-2040-jadsa",
    "title": "Jadsa (BA)",
    "date": "2026-02-17",
    "time": "20:40",
    "location": "Cais da Alfândega",
    "artist": "Jadsa",
    "state": "BA",
    "url": ""
  },
  {
    "id": "20260217-2150-nandatsunami",
    "title": "NandaTsunami (SP)",
    "date": "2026-02-17",
    "time": "21:50",
    "location": "Cais da Alfândega",
    "artist": "NandaTsunami",
    "state": "SP",
    "url": ""
  },
  {
    "id": "20260217-2310-kikelomo",
    "title": "Kikelomo (UK/Nigéria)",
    "date": "2026-02-17",
    "time": "23:10",
    "location": "Cais da Alfândega",
    "artist": "Kikelomo",
    "state": "UK/Nigéria",
    "url": ""
  },
  {
    "id": "20260217-0030-johnny-hooker",
    "title": "Johnny Hooker (PE)",
    "date": "2026-02-17",
    "time": "00:30",
    "location": "Cais da Alfândega",
    "artist": "Johnny Hooker",
    "state": "PE",
    "url": ""
  },
  {
    "id": "20260217-1900-bobi",
    "title": "Bobi (PE)",
    "date": "2026-02-17",
    "time": "19:00",
    "location": "Cais da Alfândega",
    "artist": "Bobi",
    "state": "PE",
    "url": ""
  },
  {
    "id": "20260217-1930-afox-oxum-pand",
    "title": "Afoxé Oxum Pandá (PE)",
    "date": "2026-02-17",
    "time": "19:30",
    "location": "Cais da Alfândega",
    "artist": "Afoxé Oxum Pandá",
    "state": "PE",
    "url": ""
  },
  {
    "id": "20260217-2040-z-ibarra",
    "title": "Zé Ibarra (RJ)",
    "date": "2026-02-17",
    "time": "20:40",
    "location": "Cais da Alfândega",
    "artist": "Zé Ibarra",
    "state": "RJ",
    "url": ""
  },
  {
    "id": "20260217-2150-felipe-cordeiro-layse",
    "title": "Felipe Cordeiro & Layse (PA)",
    "date": "2026-02-17",
    "time": "21:50",
    "location": "Cais da Alfândega",
    "artist": "Felipe Cordeiro & Layse",
    "state": "PA",
    "url": ""
  },
  {
    "id": "20260217-2310-ghetto-kumb",
    "title": "Ghetto Kumbé (Colômbia)",
    "date": "2026-02-17",
    "time": "23:10",
    "location": "Cais da Alfândega",
    "artist": "Ghetto Kumbé",
    "state": "Colômbia",
    "url": ""
  },
  {
    "id": "20260217-0030-djonga",
    "title": "Djonga (MG)",
    "date": "2026-02-17",
    "time": "00:30",
    "location": "Cais da Alfândega",
    "artist": "Djonga",
    "state": "MG",
    "url": ""
  },
  {
    "id": "20260215-1800-paulete-lindacelva",
    "title": "Paulete Lindacelva (PE)",
    "date": "2026-02-15",
    "time": "18:00",
    "location": "Cais da Alfândega",
    "artist": "Paulete Lindacelva",
    "state": "PE",
    "url": ""
  },
  {
    "id": "20260215-1920-lofihouseboy",
    "title": "LOFIHOUSEBOY (PA)",
    "date": "2026-02-15",
    "time": "19:20",
    "location": "Cais da Alfândega",
    "artist": "LOFIHOUSEBOY",
    "state": "PA",
    "url": ""
  },
  {
    "id": "20260215-2040-davs",
    "title": "DAVS (PE)",
    "date": "2026-02-15",
    "time": "20:40",
    "location": "Cais da Alfândega",
    "artist": "DAVS",
    "state": "PE",
    "url": ""
  },
  {
    "id": "20260215-2200-piolinda-marcela",
    "title": "Piolinda Marcela (Colômbia)",
    "date": "2026-02-15",
    "time": "22:00",
    "location": "Cais da Alfândega",
    "artist": "Piolinda Marcela",
    "state": "Colômbia",
    "url": ""
  },
  {
    "id": "20260215-2310-sphynx",
    "title": "SPHYNX (SP)",
    "date": "2026-02-15",
    "time": "23:10",
    "location": "Cais da Alfândega",
    "artist": "SPHYNX",
    "state": "SP",
    "url": ""
  },
  {
    "id": "20260215-0020-carlos-do-complexo",
    "title": "Carlos do Complexo (RJ)",
    "date": "2026-02-15",
    "time": "00:20",
    "location": "Cais da Alfândega",
    "artist": "Carlos do Complexo",
    "state": "RJ",
    "url": ""
  },
  {
    "id": "20260215-1900-afrobitch",
    "title": "Afrobitch (PE)",
    "date": "2026-02-15",
    "time": "19:00",
    "location": "Cais da Alfândega",
    "artist": "Afrobitch",
    "state": "PE",
    "url": ""
  },
  {
    "id": "20260215-1930-chico-chico",
    "title": "Chico Chico (RJ)",
    "date": "2026-02-15",
    "time": "19:30",
    "location": "Cais da Alfândega",
    "artist": "Chico Chico",
    "state": "RJ",
    "url": ""
  },
  {
    "id": "20260215-2040-momi-maiga-quartet",
    "title": "Momi Maiga Quartet (Senegal)",
    "date": "2026-02-15",
    "time": "20:40",
    "location": "Cais da Alfândega",
    "artist": "Momi Maiga Quartet",
    "state": "Senegal",
    "url": ""
  },
  {
    "id": "20260215-2150-josyara",
    "title": "Josyara (BA)",
    "date": "2026-02-15",
    "time": "21:50",
    "location": "Cais da Alfândega",
    "artist": "Josyara",
    "state": "BA",
    "url": ""
  },
  {
    "id": "20260215-2310-faizal-mostrixx",
    "title": "FAIZAL MOSTRIXX (Uganda)",
    "date": "2026-02-15",
    "time": "23:10",
    "location": "Cais da Alfândega",
    "artist": "FAIZAL MOSTRIXX",
    "state": "Uganda",
    "url": ""
  },
  {
    "id": "20260215-0030-ajulliacosta",
    "title": "AJULLIACOSTA (SP)",
    "date": "2026-02-15",
    "time": "00:30",
    "location": "Cais da Alfândega",
    "artist": "AJULLIACOSTA",
    "state": "SP",
    "url": ""
  },
  {
    "id": "20260215-1800-paulete-lindacelva",
    "title": "Paulete Lindacelva (PE)",
    "date": "2026-02-15",
    "time": "18:00",
    "location": "Cais da Alfândega",
    "artist": "Paulete Lindacelva",
    "state": "PE",
    "url": ""
  },
  {
    "id": "20260215-1920-lofihouseboy",
    "title": "LOFIHOUSEBOY (PA)",
    "date": "2026-02-15",
    "time": "19:20",
    "location": "Cais da Alfândega",
    "artist": "LOFIHOUSEBOY",
    "state": "PA",
    "url": ""
  },
  {
    "id": "20260215-2040-davs",
    "title": "DAVS (PE)",
    "date": "2026-02-15",
    "time": "20:40",
    "location": "Cais da Alfândega",
    "artist": "DAVS",
    "state": "PE",
    "url": ""
  },
  {
    "id": "20260215-2200-piolinda-marcela",
    "title": "Piolinda Marcela (Colômbia)",
    "date": "2026-02-15",
    "time": "22:00",
    "location": "Cais da Alfândega",
    "artist": "Piolinda Marcela",
    "state": "Colômbia",
    "url": ""
  },
  {
    "id": "20260215-2310-sphynx",
    "title": "SPHYNX (SP)",
    "date": "2026-02-15",
    "time": "23:10",
    "location": "Cais da Alfândega",
    "artist": "SPHYNX",
    "state": "SP",
    "url": ""
  },
  {
    "id": "20260215-0020-carlos-do-complexo",
    "title": "Carlos do Complexo (RJ)",
    "date": "2026-02-15",
    "time": "00:20",
    "location": "Cais da Alfândega",
    "artist": "Carlos do Complexo",
    "state": "RJ",
    "url": ""
  },
  {
    "id": "20260215-1900-afrobitch",
    "title": "Afrobitch (PE)",
    "date": "2026-02-15",
    "time": "19:00",
    "location": "Cais da Alfândega",
    "artist": "Afrobitch",
    "state": "PE",
    "url": ""
  },
  {
    "id": "20260215-1930-chico-chico",
    "title": "Chico Chico (RJ)",
    "date": "2026-02-15",
    "time": "19:30",
    "location": "Cais da Alfândega",
    "artist": "Chico Chico",
    "state": "RJ",
    "url": ""
  },
  {
    "id": "20260215-2040-momi-maiga-quartet",
    "title": "Momi Maiga Quartet (Senegal)",
    "date": "2026-02-15",
    "time": "20:40",
    "location": "Cais da Alfândega",
    "artist": "Momi Maiga Quartet",
    "state": "Senegal",
    "url": ""
  },
  {
    "id": "20260215-2150-josyara",
    "title": "Josyara (BA)",
    "date": "2026-02-15",
    "time": "21:50",
    "location": "Cais da Alfândega",
    "artist": "Josyara",
    "state": "BA",
    "url": ""
  },
  {
    "id": "20260215-2310-faizal-mostrixx",
    "title": "FAIZAL MOSTRIXX (Uganda)",
    "date": "2026-02-15",
    "time": "23:10",
    "location": "Cais da Alfândega",
    "artist": "FAIZAL MOSTRIXX",
    "state": "Uganda",
    "url": ""
  },
  {
    "id": "20260215-0030-ajulliacosta",
    "title": "AJULLIACOSTA (SP)",
    "date": "2026-02-15",
    "time": "00:30",
    "location": "Cais da Alfândega",
    "artist": "AJULLIACOSTA",
    "state": "SP",
    "url": ""
  },
  {
    "id": "20260215-1800-paulete-lindacelva",
    "title": "Paulete Lindacelva (PE)",
    "date": "2026-02-15",
    "time": "18:00",
    "location": "Cais da Alfândega",
    "artist": "Paulete Lindacelva",
    "state": "PE",
    "url": ""
  },
  {
    "id": "20260215-1920-lofihouseboy",
    "title": "LOFIHOUSEBOY (PA)",
    "date": "2026-02-15",
    "time": "19:20",
    "location": "Cais da Alfândega",
    "artist": "LOFIHOUSEBOY",
    "state": "PA",
    "url": ""
  },
  {
    "id": "20260215-2040-davs",
    "title": "DAVS (PE)",
    "date": "2026-02-15",
    "time": "20:40",
    "location": "Cais da Alfândega",
    "artist": "DAVS",
    "state": "PE",
    "url": ""
  },
  {
    "id": "20260215-2200-piolinda-marcela",
    "title": "Piolinda Marcela (Colômbia)",
    "date": "2026-02-15",
    "time": "22:00",
    "location": "Cais da Alfândega",
    "artist": "Piolinda Marcela",
    "state": "Colômbia",
    "url": ""
  },
  {
    "id": "20260215-2310-sphynx",
    "title": "SPHYNX (SP)",
    "date": "2026-02-15",
    "time": "23:10",
    "location": "Cais da Alfândega",
    "artist": "SPHYNX",
    "state": "SP",
    "url": ""
  },
  {
    "id": "20260215-0020-carlos-do-complexo",
    "title": "Carlos do Complexo (RJ)",
    "date": "2026-02-15",
    "time": "00:20",
    "location": "Cais da Alfândega",
    "artist": "Carlos do Complexo",
    "state": "RJ",
    "url": ""
  },
  {
    "id": "20260215-1900-afrobitch",
    "title": "Afrobitch (PE)",
    "date": "2026-02-15",
    "time": "19:00",
    "location": "Cais da Alfândega",
    "artist": "Afrobitch",
    "state": "PE",
    "url": ""
  },
  {
    "id": "20260215-1930-chico-chico",
    "title": "Chico Chico (RJ)",
    "date": "2026-02-15",
    "time": "19:30",
    "location": "Cais da Alfândega",
    "artist": "Chico Chico",
    "state": "RJ",
    "url": ""
  },
  {
    "id": "20260215-2040-momi-maiga-quartet",
    "title": "Momi Maiga Quartet (Senegal)",
    "date": "2026-02-15",
    "time": "20:40",
    "location": "Cais da Alfândega",
    "artist": "Momi Maiga Quartet",
    "state": "Senegal",
    "url": ""
  },
  {
    "id": "20260215-2150-josyara",
    "title": "Josyara (BA)",
    "date": "2026-02-15",
    "time": "21:50",
    "location": "Cais da Alfândega",
    "artist": "Josyara",
    "state": "BA",
    "url": ""
  },
  {
    "id": "20260215-2310-faizal-mostrixx",
    "title": "FAIZAL MOSTRIXX (Uganda)",
    "date": "2026-02-15",
    "time": "23:10",
    "location": "Cais da Alfândega",
    "artist": "FAIZAL MOSTRIXX",
    "state": "Uganda",
    "url": ""
  },
  {
    "id": "20260215-0030-ajulliacosta",
    "title": "AJULLIACOSTA (SP)",
    "date": "2026-02-15",
    "time": "00:30",
    "location": "Cais da Alfândega",
    "artist": "AJULLIACOSTA",
    "state": "SP",
    "url": ""
  },
  {
    "id": "20260214-1800-paulete-lindacelva",
    "title": "Paulete Lindacelva (PE)",
    "date": "2026-02-14",
    "time": "18:00",
    "location": "Cais da Alfândega",
    "artist": "Paulete Lindacelva",
    "state": "PE",
    "url": ""
  },
  {
    "id": "20260214-1920-lofihouseboy",
    "title": "LOFIHOUSEBOY (PA)",
    "date": "2026-02-14",
    "time": "19:20",
    "location": "Cais da Alfândega",
    "artist": "LOFIHOUSEBOY",
    "state": "PA",
    "url": ""
  },
  {
    "id": "20260214-2040-davs",
    "title": "DAVS (PE)",
    "date": "2026-02-14",
    "time": "20:40",
    "location": "Cais da Alfândega",
    "artist": "DAVS",
    "state": "PE",
    "url": ""
  },
  {
    "id": "20260214-2200-piolinda-marcela",
    "title": "Piolinda Marcela (Colômbia)",
    "date": "2026-02-14",
    "time": "22:00",
    "location": "Cais da Alfândega",
    "artist": "Piolinda Marcela",
    "state": "Colômbia",
    "url": ""
  },
  {
    "id": "20260214-2310-sphynx",
    "title": "SPHYNX (SP)",
    "date": "2026-02-14",
    "time": "23:10",
    "location": "Cais da Alfândega",
    "artist": "SPHYNX",
    "state": "SP",
    "url": ""
  },
  {
    "id": "20260214-0020-carlos-do-complexo",
    "title": "Carlos do Complexo (RJ)",
    "date": "2026-02-14",
    "time": "00:20",
    "location": "Cais da Alfândega",
    "artist": "Carlos do Complexo",
    "state": "RJ",
    "url": ""
  },
  {
    "id": "20260215-1900-afrobitch",
    "title": "Afrobitch (PE)",
    "date": "2026-02-15",
    "time": "19:00",
    "location": "Cais da Alfândega",
    "artist": "Afrobitch",
    "state": "PE",
    "url": ""
  },
  {
    "id": "20260215-1930-chico-chico",
    "title": "Chico Chico (RJ)",
    "date": "2026-02-15",
    "time": "19:30",
    "location": "Cais da Alfândega",
    "artist": "Chico Chico",
    "state": "RJ",
    "url": ""
  },
  {
    "id": "20260215-2040-momi-maiga-quartet",
    "title": "Momi Maiga Quartet (Senegal)",
    "date": "2026-02-15",
    "time": "20:40",
    "location": "Cais da Alfândega",
    "artist": "Momi Maiga Quartet",
    "state": "Senegal",
    "url": ""
  },
  {
    "id": "20260215-2150-josyara",
    "title": "Josyara (BA)",
    "date": "2026-02-15",
    "time": "21:50",
    "location": "Cais da Alfândega",
    "artist": "Josyara",
    "state": "BA",
    "url": ""
  },
  {
    "id": "20260215-2310-faizal-mostrixx",
    "title": "FAIZAL MOSTRIXX (Uganda)",
    "date": "2026-02-15",
    "time": "23:10",
    "location": "Cais da Alfândega",
    "artist": "FAIZAL MOSTRIXX",
    "state": "Uganda",
    "url": ""
  },
  {
    "id": "20260215-0030-ajulliacosta",
    "title": "AJULLIACOSTA (SP)",
    "date": "2026-02-15",
    "time": "00:30",
    "location": "Cais da Alfândega",
    "artist": "AJULLIACOSTA",
    "state": "SP",
    "url": ""
  },
  {
    "id": "20260217-1900-zoe-beats",
    "title": "Zoe Beats (PE)",
    "date": "2026-02-17",
    "time": "19:00",
    "location": "Cais da Alfândega",
    "artist": "Zoe Beats",
    "state": "PE",
    "url": ""
  },
  {
    "id": "20260217-1930-barbarize",
    "title": "Barbarize (PE)",
    "date": "2026-02-17",
    "time": "19:30",
    "location": "Cais da Alfândega",
    "artist": "Barbarize",
    "state": "PE",
    "url": ""
  },
  {
    "id": "20260217-2040-jadsa",
    "title": "Jadsa (BA)",
    "date": "2026-02-17",
    "time": "20:40",
    "location": "Cais da Alfândega",
    "artist": "Jadsa",
    "state": "BA",
    "url": ""
  },
  {
    "id": "20260217-2150-nandatsunami",
    "title": "NandaTsunami (SP)",
    "date": "2026-02-17",
    "time": "21:50",
    "location": "Cais da Alfândega",
    "artist": "NandaTsunami",
    "state": "SP",
    "url": ""
  },
  {
    "id": "20260217-2310-kikelomo",
    "title": "Kikelomo (UK/Nigéria)",
    "date": "2026-02-17",
    "time": "23:10",
    "location": "Cais da Alfândega",
    "artist": "Kikelomo",
    "state": "UK/Nigéria",
    "url": ""
  },
  {
    "id": "20260217-0030-johnny-hooker",
    "title": "Johnny Hooker (PE)",
    "date": "2026-02-17",
    "time": "00:30",
    "location": "Cais da Alfândega",
    "artist": "Johnny Hooker",
    "state": "PE",
    "url": ""
  },
  {
    "id": "20260217-1900-bobi",
    "title": "Bobi (PE)",
    "date": "2026-02-17",
    "time": "19:00",
    "location": "Cais da Alfândega",
    "artist": "Bobi",
    "state": "PE",
    "url": ""
  },
  {
    "id": "20260217-1930-afox-oxum-pand",
    "title": "Afoxé Oxum Pandá (PE)",
    "date": "2026-02-17",
    "time": "19:30",
    "location": "Cais da Alfândega",
    "artist": "Afoxé Oxum Pandá",
    "state": "PE",
    "url": ""
  },
  {
    "id": "20260217-2040-z-ibarra",
    "title": "Zé Ibarra (RJ)",
    "date": "2026-02-17",
    "time": "20:40",
    "location": "Cais da Alfândega",
    "artist": "Zé Ibarra",
    "state": "RJ",
    "url": ""
  },
  {
    "id": "20260217-2150-felipe-cordeiro-layse",
    "title": "Felipe Cordeiro & Layse (PA)",
    "date": "2026-02-17",
    "time": "21:50",
    "location": "Cais da Alfândega",
    "artist": "Felipe Cordeiro & Layse",
    "state": "PA",
    "url": ""
  },
  {
    "id": "20260217-2310-ghetto-kumb",
    "title": "Ghetto Kumbé (Colômbia)",
    "date": "2026-02-17",
    "time": "23:10",
    "location": "Cais da Alfândega",
    "artist": "Ghetto Kumbé",
    "state": "Colômbia",
    "url": ""
  },
  {
    "id": "20260217-0030-djonga",
    "title": "Djonga (MG)",
    "date": "2026-02-17",
    "time": "00:30",
    "location": "Cais da Alfândega",
    "artist": "Djonga",
    "state": "MG",
    "url": ""
  },
  {
    "id": "20260217-1900-zoe-beats",
    "title": "Zoe Beats (PE)",
    "date": "2026-02-17",
    "time": "19:00",
    "location": "Cais da Alfândega",
    "artist": "Zoe Beats",
    "state": "PE",
    "url": ""
  },
  {
    "id": "20260217-1930-barbarize",
    "title": "Barbarize (PE)",
    "date": "2026-02-17",
    "time": "19:30",
    "location": "Cais da Alfândega",
    "artist": "Barbarize",
    "state": "PE",
    "url": ""
  },
  {
    "id": "20260217-2040-jadsa",
    "title": "Jadsa (BA)",
    "date": "2026-02-17",
    "time": "20:40",
    "location": "Cais da Alfândega",
    "artist": "Jadsa",
    "state": "BA",
    "url": ""
  },
  {
    "id": "20260217-2150-nandatsunami",
    "title": "NandaTsunami (SP)",
    "date": "2026-02-17",
    "time": "21:50",
    "location": "Cais da Alfândega",
    "artist": "NandaTsunami",
    "state": "SP",
    "url": ""
  },
  {
    "id": "20260217-2310-kikelomo",
    "title": "Kikelomo (UK/Nigéria)",
    "date": "2026-02-17",
    "time": "23:10",
    "location": "Cais da Alfândega",
    "artist": "Kikelomo",
    "state": "UK/Nigéria",
    "url": ""
  },
  {
    "id": "20260217-0030-johnny-hooker",
    "title": "Johnny Hooker (PE)",
    "date": "2026-02-17",
    "time": "00:30",
    "location": "Cais da Alfândega",
    "artist": "Johnny Hooker",
    "state": "PE",
    "url": ""
  },
  {
    "id": "20260217-1900-bobi",
    "title": "Bobi (PE)",
    "date": "2026-02-17",
    "time": "19:00",
    "location": "Cais da Alfândega",
    "artist": "Bobi",
    "state": "PE",
    "url": ""
  },
  {
    "id": "20260217-1930-afox-oxum-pand",
    "title": "Afoxé Oxum Pandá (PE)",
    "date": "2026-02-17",
    "time": "19:30",
    "location": "Cais da Alfândega",
    "artist": "Afoxé Oxum Pandá",
    "state": "PE",
    "url": ""
  },
  {
    "id": "20260217-2040-z-ibarra",
    "title": "Zé Ibarra (RJ)",
    "date": "2026-02-17",
    "time": "20:40",
    "location": "Cais da Alfândega",
    "artist": "Zé Ibarra",
    "state": "RJ",
    "url": ""
  },
  {
    "id": "20260217-2150-felipe-cordeiro-layse",
    "title": "Felipe Cordeiro & Layse (PA)",
    "date": "2026-02-17",
    "time": "21:50",
    "location": "Cais da Alfândega",
    "artist": "Felipe Cordeiro & Layse",
    "state": "PA",
    "url": ""
  },
  {
    "id": "20260217-2310-ghetto-kumb",
    "title": "Ghetto Kumbé (Colômbia)",
    "date": "2026-02-17",
    "time": "23:10",
    "location": "Cais da Alfândega",
    "artist": "Ghetto Kumbé",
    "state": "Colômbia",
    "url": ""
  },
  {
    "id": "20260217-0030-djonga",
    "title": "Djonga (MG)",
    "date": "2026-02-17",
    "time": "00:30",
    "location": "Cais da Alfândega",
    "artist": "Djonga",
    "state": "MG",
    "url": ""
  },
  {
    "id": "20260216-1900-zoe-beats",
    "title": "Zoe Beats (PE)",
    "date": "2026-02-16",
    "time": "19:00",
    "location": "Cais da Alfândega",
    "artist": "Zoe Beats",
    "state": "PE",
    "url": ""
  },
  {
    "id": "20260216-1930-barbarize",
    "title": "Barbarize (PE)",
    "date": "2026-02-16",
    "time": "19:30",
    "location": "Cais da Alfândega",
    "artist": "Barbarize",
    "state": "PE",
    "url": ""
  },
  {
    "id": "20260216-2040-jadsa",
    "title": "Jadsa (BA)",
    "date": "2026-02-16",
    "time": "20:40",
    "location": "Cais da Alfândega",
    "artist": "Jadsa",
    "state": "BA",
    "url": ""
  },
  {
    "id": "20260216-2150-nandatsunami",
    "title": "NandaTsunami (SP)",
    "date": "2026-02-16",
    "time": "21:50",
    "location": "Cais da Alfândega",
    "artist": "NandaTsunami",
    "state": "SP",
    "url": ""
  },
  {
    "id": "20260216-2310-kikelomo",
    "title": "Kikelomo (UK/Nigéria)",
    "date": "2026-02-16",
    "time": "23:10",
    "location": "Cais da Alfândega",
    "artist": "Kikelomo",
    "state": "UK/Nigéria",
    "url": ""
  },
  {
    "id": "20260216-0030-johnny-hooker",
    "title": "Johnny Hooker (PE)",
    "date": "2026-02-16",
    "time": "00:30",
    "location": "Cais da Alfândega",
    "artist": "Johnny Hooker",
    "state": "PE",
    "url": ""
  },
  {
    "id": "20260217-1900-bobi",
    "title": "Bobi (PE)",
    "date": "2026-02-17",
    "time": "19:00",
    "location": "Cais da Alfândega",
    "artist": "Bobi",
    "state": "PE",
    "url": ""
  },
  {
    "id": "20260217-1930-afox-oxum-pand",
    "title": "Afoxé Oxum Pandá (PE)",
    "date": "2026-02-17",
    "time": "19:30",
    "location": "Cais da Alfândega",
    "artist": "Afoxé Oxum Pandá",
    "state": "PE",
    "url": ""
  },
  {
    "id": "20260217-2040-z-ibarra",
    "title": "Zé Ibarra (RJ)",
    "date": "2026-02-17",
    "time": "20:40",
    "location": "Cais da Alfândega",
    "artist": "Zé Ibarra",
    "state": "RJ",
    "url": ""
  },
  {
    "id": "20260217-2150-felipe-cordeiro-layse",
    "title": "Felipe Cordeiro & Layse (PA)",
    "date": "2026-02-17",
    "time": "21:50",
    "location": "Cais da Alfândega",
    "artist": "Felipe Cordeiro & Layse",
    "state": "PA",
    "url": ""
  },
  {
    "id": "20260217-2310-ghetto-kumb",
    "title": "Ghetto Kumbé (Colômbia)",
    "date": "2026-02-17",
    "time": "23:10",
    "location": "Cais da Alfândega",
    "artist": "Ghetto Kumbé",
    "state": "Colômbia",
    "url": ""
  },
  {
    "id": "20260217-0030-djonga",
    "title": "Djonga (MG)",
    "date": "2026-02-17",
    "time": "00:30",
    "location": "Cais da Alfândega",
    "artist": "Djonga",
    "state": "MG",
    "url": ""
  }
]
